,City,Cloudiness,Country,Date,Humidity,Lat,Lng,Max Temp,Wind Speed
0,ushuaia,90.0,AR,1538175600.0,86.0,-54.81,-68.31,37.4,21.92
1,mahebourg,40.0,MU,1538175600.0,73.0,-20.41,57.7,71.6,10.29
2,santa margherita ligure,0.0,IT,1538175000.0,63.0,44.33,9.21,66.2,6.93
3,port elizabeth,1.0,US,1538175360.0,93.0,39.31,-74.98,66.92,4.38
4,hamilton,20.0,BM,1538171700.0,65.0,32.3,-64.78,78.8,3.36
5,nelson bay,48.0,AU,1538175600.0,45.0,-32.72,152.14,68.0,12.75
7,broken hill,0.0,AU,1538177532.0,50.0,-31.97,141.45,54.42,14.67
8,nikolskoye,0.0,RU,1538175600.0,69.0,59.7,30.79,39.2,6.71
9,maamba,0.0,ZM,1538177534.0,45.0,-17.36,27.22,67.74,5.73
10,caravelas,0.0,BR,1538177535.0,100.0,-17.73,-39.27,77.19,16.46
11,sinnamary,0.0,GF,1538177536.0,94.0,5.38,-52.96,82.59,14.23
12,mataura,80.0,NZ,1538177538.0,62.0,-46.19,168.86,58.74,25.08
13,bethel,20.0,US,1538175180.0,54.0,60.79,-161.76,66.02,18.34
14,sao filipe,0.0,CV,1538177541.0,93.0,14.9,-24.5,79.17,17.92
15,atuona,76.0,PF,1538177542.0,100.0,-9.8,-139.03,79.53,10.65
16,torbay,90.0,CA,1538175600.0,100.0,47.66,-52.73,51.8,11.41
17,baruun-urt,80.0,MN,1538177544.0,87.0,46.68,113.28,35.34,9.31
18,kosa,92.0,RU,1538177545.0,98.0,59.94,54.99,40.83,5.39
19,hermanus,56.0,ZA,1538177547.0,91.0,-34.42,19.24,44.61,1.92
20,saldanha,8.0,PT,1538177548.0,69.0,41.42,-6.55,60.27,6.62
21,new norfolk,20.0,AU,1538175600.0,46.0,-42.78,147.06,50.0,23.04
22,sorland,80.0,NO,1538177550.0,100.0,67.67,12.69,45.96,25.97
23,diffa,0.0,NE,1538177551.0,63.0,13.32,12.61,78.9,6.17
24,hami,20.0,CN,1538177552.0,59.0,42.84,93.51,38.94,3.27
25,awbari,44.0,LY,1538177553.0,73.0,26.59,12.77,66.12,2.82
26,enderby,1.0,CA,1538175600.0,42.0,50.55,-119.14,66.2,10.29
27,san patricio,0.0,PY,1538177556.0,80.0,-26.98,-56.83,77.91,4.38
28,albany,75.0,US,1538175900.0,77.0,42.65,-73.75,59.0,3.36
30,kempele,0.0,FI,1538176800.0,92.0,64.91,25.51,30.2,2.24
31,tessalit,32.0,ML,1538177560.0,32.0,20.2,1.01,77.64,6.06
32,contepec,56.0,MX,1538177562.0,92.0,19.95,-100.16,57.39,3.27
33,dikson,64.0,RU,1538177563.0,89.0,73.51,80.55,40.02,14.67
34,busselton,76.0,AU,1538177564.0,100.0,-33.64,115.35,59.46,20.15
35,akdepe,0.0,TM,1538175600.0,54.0,42.05,59.39,53.6,4.7
36,high level,75.0,CA,1538175600.0,26.0,58.52,-117.13,44.6,14.99
37,vaini,92.0,IN,1538177567.0,98.0,15.34,74.49,68.73,2.15
38,calvia,20.0,ES,1538175600.0,88.0,39.57,2.51,62.6,1.92
39,kapaa,75.0,US,1538175360.0,79.0,22.08,-159.32,84.92,17.22
40,lebu,20.0,ET,1538175600.0,47.0,8.96,38.73,59.0,9.17
41,grand gaube,40.0,MU,1538175600.0,73.0,-20.01,57.66,71.6,10.29
42,rikitea,92.0,PF,1538177573.0,100.0,-23.12,-134.97,71.88,4.83
44,hilo,20.0,US,1538175360.0,63.0,19.71,-155.08,87.08,12.75
45,gubkinskiy,44.0,RU,1538177404.0,64.0,64.43,76.5,56.76,23.29
46,itarema,0.0,BR,1538177577.0,78.0,-2.92,-39.92,77.37,14.45
47,camabatela,44.0,AO,1538177578.0,95.0,-8.19,15.37,64.5,0.58
48,kruisfontein,88.0,ZA,1538177579.0,84.0,-34.0,24.73,60.45,23.85
49,punta arenas,0.0,CL,1538175600.0,100.0,-53.16,-70.91,41.0,8.05
50,hithadhoo,92.0,MV,1538177582.0,100.0,-0.6,73.08,79.26,19.82
51,muta,48.0,SI,1538175600.0,81.0,46.61,15.17,53.6,1.12
52,khatanga,12.0,RU,1538177584.0,90.0,71.98,102.47,40.83,12.88
53,teya,75.0,MX,1538174640.0,52.0,21.05,-89.07,91.4,11.41
54,birao,12.0,CF,1538177587.0,87.0,10.3,22.78,73.95,1.48
55,karpathos,0.0,GR,1538175000.0,69.0,35.51,27.21,73.4,5.82
56,barreirinhas,0.0,BR,1538177347.0,68.0,-2.75,-42.83,80.25,14.79
57,antipolo,40.0,PH,1538172000.0,100.0,14.59,121.18,80.6,2.24
58,atar,0.0,MR,1538177591.0,30.0,20.52,-13.05,77.28,6.06
59,zihuatanejo,75.0,MX,1538174520.0,74.0,17.64,-101.55,84.2,9.17
61,jacareacanga,12.0,BR,1538177594.0,81.0,-6.22,-57.76,79.62,2.26
62,worland,1.0,US,1538175180.0,48.0,44.02,-107.96,55.94,9.17
63,strelka,0.0,RU,1538177597.0,87.0,58.08,93.03,39.93,9.53
64,zhezkazgan,0.0,KZ,1538177598.0,80.0,47.8,67.71,36.51,2.93
65,serro,80.0,BR,1538177599.0,52.0,-18.6,-43.38,74.67,3.15
66,leshukonskoye,92.0,RU,1538177600.0,99.0,64.9,45.76,40.92,3.94
67,callaway,1.0,US,1538176500.0,56.0,46.98,-95.91,44.06,9.17
69,xining,0.0,CN,1538177580.0,71.0,36.62,101.77,23.91,3.71
70,norman wells,75.0,CA,1538175600.0,59.0,65.28,-126.83,37.4,16.11
71,bredasdorp,36.0,ZA,1538175600.0,62.0,-34.53,20.04,55.4,5.82
72,roros,48.0,NO,1538175000.0,59.0,62.57,11.38,33.8,6.93
73,mareeba,20.0,AU,1538175600.0,48.0,-16.99,145.42,82.4,19.46
74,lysva,92.0,RU,1538177609.0,99.0,58.11,57.8,41.37,18.25
76,punta alta,0.0,AR,1538175600.0,69.0,-27.46,-55.82,80.6,3.36
77,derzhavinsk,8.0,KZ,1538177613.0,86.0,51.1,66.31,38.22,8.08
78,volgodonsk,0.0,RU,1538177614.0,96.0,47.51,42.17,45.06,2.93
79,tasiilaq,0.0,GL,1538175000.0,30.0,65.61,-37.64,42.8,28.86
80,hambantota,36.0,LK,1538177616.0,100.0,6.12,81.12,77.55,11.65
81,esperance,20.0,TT,1538175600.0,88.0,10.24,-61.45,80.6,7.96
83,kaitangata,32.0,NZ,1538177619.0,69.0,-46.28,169.85,59.19,11.65
84,fortuna,0.0,ES,1538175600.0,82.0,38.18,-1.13,68.0,4.7
85,kunming,90.0,CN,1538172000.0,93.0,25.04,102.71,55.4,6.71
86,teguldet,56.0,RU,1538177623.0,77.0,57.31,88.17,48.3,8.75
87,cidreira,56.0,BR,1538177624.0,92.0,-30.17,-50.22,66.93,20.15
88,salalah,75.0,OM,1538175000.0,74.0,17.01,54.1,78.8,3.36
89,solnechnyy,0.0,RU,1538177626.0,66.0,50.72,136.64,55.05,2.59
90,east london,0.0,ZA,1538177361.0,100.0,-33.02,27.91,65.31,30.33
91,saint-augustin,0.0,FR,1538175600.0,63.0,44.83,-0.61,66.2,8.05
92,neiafu,75.0,TO,1538175600.0,69.0,-18.65,-173.98,78.8,8.05
93,cape town,20.0,ZA,1538175600.0,81.0,-33.93,18.42,48.2,3.36
95,sainte-maxime,8.0,FR,1538175600.0,76.0,43.31,6.64,66.2,1.12
96,kodiak,90.0,US,1538175180.0,60.0,39.95,-94.76,53.06,10.29
97,leningradskiy,88.0,RU,1538177635.0,91.0,69.38,178.42,42.0,16.8
98,bambous virieux,40.0,MU,1538175600.0,73.0,-20.34,57.76,71.6,10.29
99,saint george,75.0,GR,1538175000.0,63.0,39.45,22.34,60.8,8.05
100,ribeira grande,32.0,PT,1538177639.0,100.0,38.52,-28.7,73.23,12.55
101,pala,75.0,IN,1538175600.0,94.0,9.71,76.68,77.0,1.81
102,kingussie,92.0,GB,1538176800.0,81.0,57.08,-4.05,48.2,17.22
103,provideniya,92.0,RU,1538177642.0,86.0,64.42,-173.23,48.21,27.2
104,cherskiy,32.0,RU,1538177643.0,86.0,68.75,161.3,37.32,3.15
105,upernavik,88.0,GL,1538177644.0,100.0,72.79,-56.15,33.63,16.13
106,port alfred,0.0,ZA,1538177646.0,85.0,-33.59,26.89,63.06,26.98
107,cayenne,20.0,GF,1538175600.0,88.0,4.94,-52.33,80.6,5.82
108,castro,80.0,CL,1538177648.0,100.0,-42.48,-73.76,48.21,8.41
110,praia,75.0,BR,1538175600.0,50.0,-20.25,-43.81,78.8,11.41
112,atasu,0.0,KZ,1538177357.0,77.0,48.68,71.64,35.79,2.82
113,bulls,12.0,NZ,1538177654.0,90.0,-40.17,175.39,54.42,19.26
114,hofn,0.0,IS,1538177655.0,96.0,64.25,-15.21,45.69,33.91
115,bara,48.0,NG,1538177656.0,90.0,10.41,10.6,71.16,8.41
116,airai,0.0,TL,1538177657.0,62.0,-8.93,125.41,76.11,2.37
117,dhidhdhoo,92.0,MV,1538177658.0,100.0,6.88,73.1,78.9,14.0
118,havelock,1.0,US,1538175480.0,93.0,34.88,-76.9,82.94,4.7
119,okhotsk,8.0,RU,1538177661.0,85.0,59.36,143.24,42.99,16.46
120,cabo san lucas,75.0,MX,1538174520.0,74.0,22.89,-109.91,86.0,10.29
121,butaritari,0.0,KI,1538177663.0,100.0,3.07,172.79,85.29,6.85
122,japura,20.0,ID,1538177664.0,93.0,-0.42,102.29,73.86,2.71
123,yellowknife,90.0,CA,1538175600.0,80.0,62.45,-114.38,33.8,14.99
124,los llanos de aridane,44.0,ES,1538175600.0,73.0,28.66,-17.92,73.4,13.87
126,lata,0.0,IN,1538177669.0,86.0,30.78,78.62,45.87,2.26
127,taldan,0.0,RU,1538177670.0,83.0,53.69,124.82,49.29,2.93
128,brentwood,75.0,US,1538176500.0,60.0,36.03,-86.78,75.2,5.82
129,kavieng,12.0,PG,1538177672.0,100.0,-2.57,150.8,85.11,8.63
130,voyvozh,88.0,RU,1538177674.0,94.0,62.89,54.96,35.34,4.94
131,gravdal,92.0,NO,1538175000.0,76.0,59.79,5.78,50.0,11.41
132,praia da vitoria,75.0,PT,1538175600.0,94.0,38.73,-27.07,71.6,17.81
133,te anau,36.0,NZ,1538177677.0,69.0,-45.41,167.72,50.19,18.25
134,sydney,0.0,AU,1538175900.0,39.0,-33.85,151.22,68.0,23.04
135,eureka,90.0,US,1538175300.0,83.0,40.8,-124.16,66.2,5.82
136,hobart,20.0,AU,1538175600.0,46.0,-42.88,147.33,50.0,23.04
137,zhigalovo,12.0,RU,1538177682.0,84.0,54.81,105.15,28.32,1.7
138,dingle,76.0,PH,1538177683.0,97.0,11.0,122.67,78.0,6.85
139,tuktoyaktuk,90.0,CA,1538175600.0,80.0,69.44,-133.03,30.2,9.17
140,padang,24.0,ID,1538177685.0,100.0,-0.92,100.36,78.81,3.49
141,cockburn town,56.0,TC,1538177631.0,97.0,21.46,-71.14,83.67,16.24
142,chuy,92.0,UY,1538177688.0,96.0,-33.69,-53.46,62.79,23.4
143,barrow,92.0,AR,1538177689.0,97.0,-38.31,-60.23,59.91,7.96
144,manicore,24.0,BR,1538177690.0,91.0,-5.81,-61.3,79.98,2.04
145,jamestown,0.0,AU,1538177691.0,47.0,-33.21,138.6,52.08,8.97
146,coihaique,75.0,CL,1538175600.0,76.0,-45.58,-72.07,50.0,3.36
147,grindavik,75.0,IS,1538175600.0,87.0,63.84,-22.43,42.8,27.51
148,ceres,92.0,AR,1538177695.0,64.0,-29.88,-61.95,84.66,14.45
149,laguna,20.0,MX,1538174760.0,52.0,27.52,-110.01,91.4,5.82
150,qaanaaq,0.0,GL,1538177697.0,100.0,77.48,-69.36,13.29,11.77
151,sibolga,76.0,ID,1538177698.0,100.0,1.74,98.78,70.53,1.7
152,mecca,48.0,SA,1538177573.0,55.0,21.43,39.83,75.75,0.92
153,marsa matruh,0.0,EG,1538172000.0,83.0,31.35,27.25,77.0,4.38
154,san quintin,75.0,PH,1538175600.0,94.0,17.54,120.52,78.8,4.7
155,erzin,0.0,TR,1538175000.0,65.0,36.95,36.2,77.0,8.05
156,victoria,75.0,BN,1538175600.0,94.0,5.28,115.24,78.8,4.16
157,port-cartier,20.0,CA,1538175600.0,87.0,50.03,-66.88,44.6,14.99
158,ancud,92.0,CL,1538177416.0,98.0,-41.87,-73.83,48.93,8.41
159,ponta do sol,68.0,BR,1538177708.0,60.0,-20.63,-46.0,73.77,7.52
160,rock springs,1.0,US,1538175240.0,5.0,41.59,-109.2,73.94,23.04
161,samarai,36.0,PG,1538177710.0,97.0,-10.62,150.67,78.81,14.23
162,san carlos de bariloche,90.0,AR,1538175600.0,87.0,-41.13,-71.31,44.6,18.34
163,poum,76.0,MK,1538177712.0,59.0,41.28,20.71,46.41,0.47
164,umm lajj,12.0,SA,1538177713.0,100.0,25.02,37.27,79.26,4.83
165,plettenberg bay,76.0,ZA,1538177715.0,100.0,-34.05,23.37,59.73,21.39
166,creel,20.0,MX,1538177716.0,65.0,27.75,-107.63,65.49,3.04
167,codrington,0.0,AU,1538177717.0,71.0,-28.95,153.24,73.14,8.19
168,kumluca,0.0,TR,1538177718.0,91.0,36.37,30.29,46.41,1.36
169,ishigaki,75.0,JP,1538176260.0,94.0,24.34,124.16,78.8,32.21
171,lasa,20.0,CY,1538175600.0,77.0,34.92,32.53,77.0,4.7
172,saskylakh,92.0,RU,1538177724.0,94.0,71.97,114.09,31.74,12.21
174,bolitoc,44.0,PH,1538177726.0,95.0,15.74,119.88,79.44,4.16
175,maseru,8.0,LS,1538177727.0,47.0,-29.31,27.48,34.71,2.37
176,auki,12.0,NG,1538177728.0,87.0,12.18,6.51,73.14,5.17
177,port hedland,40.0,AU,1538175600.0,100.0,-20.31,118.58,68.0,4.7
178,mar del plata,0.0,AR,1538177730.0,50.0,-46.43,-67.52,57.03,10.65
179,clyde river,75.0,CA,1538175600.0,80.0,70.47,-68.59,30.2,3.36
180,ayaviri,76.0,PE,1538177733.0,86.0,-14.88,-70.59,39.39,0.69
181,vostok,8.0,RU,1538177734.0,71.0,46.45,135.83,50.19,3.04
182,udachnyy,24.0,RU,1538177735.0,94.0,66.42,112.4,35.61,4.16
183,mandan,75.0,US,1538175120.0,10.0,46.83,-100.89,50.0,5.82
184,navahrudak,68.0,BY,1538177737.0,98.0,53.59,25.82,46.23,10.31
185,iqaluit,75.0,CA,1538175600.0,80.0,63.75,-68.52,33.8,9.17
186,honningsvag,24.0,NO,1538177740.0,100.0,70.98,25.97,36.15,13.44
187,nanakuli,90.0,US,1538175840.0,94.0,21.39,-158.15,87.08,9.17
188,yumen,0.0,CN,1538177742.0,32.0,40.29,97.04,42.81,10.54
189,ciudad real,0.0,ES,1538177669.0,64.0,38.99,-3.93,52.8,2.93
190,severo-kurilsk,44.0,RU,1538177744.0,91.0,50.68,156.12,51.18,6.51
191,santa maria,0.0,BR,1538175600.0,94.0,-29.69,-53.81,71.6,5.82
192,bluff,0.0,AU,1538177723.0,55.0,-23.58,149.07,77.46,5.61
193,carutapera,8.0,BR,1538177748.0,78.0,-1.2,-46.02,80.52,12.44
194,kuytun,0.0,RU,1538177749.0,82.0,54.34,101.51,26.79,4.38
195,yulara,80.0,AU,1538176020.0,34.0,-25.24,130.99,66.2,21.92
196,calabozo,24.0,VE,1538177752.0,72.0,8.92,-67.43,83.13,8.75
197,ostrovnoy,88.0,RU,1538177753.0,84.0,68.05,39.51,36.69,18.14
198,hay river,75.0,CA,1538175600.0,48.0,60.82,-115.79,39.2,21.92
199,stolin,92.0,BY,1538177755.0,97.0,51.89,26.85,50.01,8.75
200,longyearbyen,75.0,NO,1538175000.0,73.0,78.22,15.63,26.6,21.92
202,ust-nera,20.0,RU,1538177758.0,82.0,64.57,143.24,22.02,2.93
203,san luis,0.0,AR,1538177760.0,55.0,-33.3,-66.34,72.24,11.54
204,tura,44.0,IN,1538177762.0,96.0,25.52,90.21,73.77,3.38
205,georgetown,20.0,GY,1538175600.0,83.0,6.8,-58.16,80.6,9.17
206,beringovskiy,100.0,RU,1538177732.0,95.0,63.05,179.32,48.12,17.13
207,tual,0.0,ID,1538177765.0,97.0,-5.67,132.75,81.06,17.69
208,alice springs,0.0,AU,1538175600.0,36.0,-23.7,133.88,64.4,19.46
209,meulaboh,48.0,ID,1538177768.0,100.0,4.14,96.13,78.09,5.73
210,cairns,20.0,AU,1538175600.0,48.0,-16.92,145.77,82.4,19.46
211,mandera,80.0,ET,1538177770.0,75.0,3.94,41.86,76.29,6.17
212,flinders,68.0,AU,1538172000.0,47.0,-34.58,150.85,59.0,6.93
213,sayyan,0.0,YE,1538177772.0,42.0,15.17,44.32,43.53,2.71
214,faya,0.0,SA,1538175600.0,31.0,18.39,42.45,68.0,5.82
216,dalbandin,0.0,PK,1538177776.0,37.0,28.9,64.41,51.63,2.82
217,gat,32.0,SN,1538175600.0,83.0,14.69,-16.54,82.4,4.7
219,virginia beach,75.0,US,1538176560.0,76.0,36.85,-75.98,73.94,4.7
221,dunedin,88.0,NZ,1538177513.0,62.0,-45.87,170.5,55.68,14.79
222,prado,0.0,BR,1538177783.0,98.0,-17.34,-39.22,77.1,16.02
223,rio gallegos,75.0,AR,1538175600.0,52.0,-51.62,-69.22,46.4,4.7
224,poya,68.0,NC,1538177785.0,95.0,-21.35,165.16,71.16,17.25
225,hasaki,75.0,JP,1538176500.0,100.0,35.73,140.83,68.0,2.24
226,ergani,0.0,TR,1538175000.0,36.0,38.27,39.76,66.2,2.24
227,igunga,0.0,TZ,1538177788.0,43.0,-4.28,33.88,67.56,10.54
229,kendal,8.0,ID,1538177791.0,81.0,-6.92,110.2,70.53,4.61
230,halifax,90.0,CA,1538176260.0,100.0,44.65,-63.58,55.4,5.82
231,burdur,20.0,TR,1538175000.0,71.0,37.72,30.29,57.2,2.15
232,bonthe,92.0,SL,1538177794.0,96.0,7.53,-12.5,76.83,2.71
233,belaya gora,48.0,RU,1538177795.0,84.0,68.54,146.19,33.27,9.53
234,northam,0.0,GB,1538176800.0,86.0,51.04,-4.21,46.4,2.24
235,kautokeino,0.0,NO,1538177743.0,84.0,69.01,23.04,17.43,2.93
236,vardo,1.0,US,1538175300.0,59.0,39.62,-77.74,71.96,3.36
237,guerrero negro,8.0,MX,1538177800.0,51.0,27.97,-114.04,81.69,10.31
238,roald,92.0,NO,1538176800.0,87.0,62.58,6.12,44.6,21.92
240,ron phibun,20.0,TH,1538175600.0,100.0,8.18,99.85,73.4,2.59
241,kamaishi,75.0,JP,1538175600.0,93.0,39.28,141.86,57.2,4.7
242,avarua,76.0,CK,1538177805.0,100.0,-21.21,-159.78,72.15,15.23
243,noumea,0.0,NC,1538175600.0,47.0,-22.28,166.46,77.0,12.75
244,ketchikan,1.0,US,1538175360.0,67.0,55.34,-131.65,62.06,20.8
245,pevek,56.0,RU,1538177809.0,90.0,69.7,170.27,44.07,3.38
246,parkes,0.0,AU,1538177810.0,56.0,-33.14,148.18,54.51,13.44
247,tiksi,92.0,RU,1538177811.0,99.0,71.64,128.87,29.76,4.16
248,lavrentiya,92.0,RU,1538177812.0,91.0,65.58,-170.99,44.7,28.88
249,sorong,32.0,ID,1538177813.0,100.0,-0.86,131.25,81.15,5.61
250,benguela,8.0,AO,1538177814.0,100.0,-12.58,13.4,68.55,2.93
251,taltal,0.0,CL,1538177816.0,92.0,-25.41,-70.49,57.93,1.92
252,lompoc,1.0,US,1538175360.0,72.0,34.64,-120.46,77.0,16.11
254,rundu,12.0,NA,1538177819.0,34.0,-17.91,19.77,71.34,5.39
256,pisco,0.0,PE,1538175600.0,30.0,-13.71,-76.2,71.6,12.75
257,barra do garcas,20.0,BR,1538175600.0,54.0,-15.89,-52.26,84.2,2.24
258,komatipoort,76.0,MZ,1538177823.0,76.0,-25.43,31.96,71.52,7.18
259,altay,0.0,CN,1538177825.0,63.0,47.83,88.13,19.23,2.15
261,balsas,100.0,BR,1538177827.0,21.0,-7.53,-46.04,92.58,8.3
262,trofors,92.0,NO,1538176800.0,70.0,65.54,13.39,42.8,12.75
263,kapit,92.0,MY,1538177829.0,99.0,2.02,112.94,71.7,2.48
264,saint-philippe,1.0,CA,1538176500.0,77.0,45.36,-73.48,66.2,12.75
265,maceio,0.0,BR,1538175600.0,88.0,-9.67,-35.74,73.4,8.05
266,sola,90.0,NO,1538176800.0,87.0,58.89,5.65,50.0,3.36
267,verkhnevilyuysk,92.0,RU,1538177834.0,85.0,63.45,120.31,40.65,5.28
268,itoman,75.0,JP,1538177280.0,88.0,26.12,127.67,78.8,46.08
269,fairbanks,1.0,US,1538175480.0,7.0,64.84,-147.72,54.14,13.87
271,mweka,76.0,CD,1538177839.0,97.0,-4.85,21.56,71.7,2.48
272,manzil salim,0.0,TN,1538175600.0,76.0,35.86,8.48,55.4,4.7
273,manali,44.0,IN,1538177841.0,85.0,32.25,77.19,13.29,1.14
274,iskateley,88.0,RU,1538177842.0,100.0,67.68,53.15,39.03,4.5
275,kuusamo,75.0,FI,1538176800.0,86.0,65.96,29.19,28.4,6.93
277,mnogovershinnyy,64.0,RU,1538177846.0,62.0,53.94,139.92,51.81,3.27
278,licheng,0.0,CN,1538177847.0,88.0,24.5,110.4,67.29,4.16
279,gasa,0.0,BT,1538177848.0,80.0,27.91,89.73,22.47,0.92
280,lakes entrance,56.0,AU,1538177778.0,91.0,-37.88,147.99,51.09,12.55
281,luderitz,8.0,NA,1538177850.0,68.0,-26.65,15.16,58.29,17.13
282,pervomayskoye,0.0,RU,1538177851.0,90.0,57.07,86.23,51.63,11.54
283,shenjiamen,100.0,CN,1538177852.0,91.0,29.96,122.3,75.57,29.77
284,port saint lucie,40.0,US,1538175300.0,70.0,27.29,-80.35,84.2,10.29
285,mekhe,8.0,SN,1538175600.0,83.0,15.11,-16.62,82.4,4.7
286,lahaina,20.0,US,1538175360.0,83.0,20.87,-156.68,89.06,17.22
287,nesna,88.0,NO,1538177857.0,97.0,66.2,13.02,35.79,5.5
288,bandarbeyla,0.0,SO,1538177858.0,99.0,9.49,50.81,77.01,18.7
289,carnarvon,0.0,ZA,1538177859.0,43.0,-30.97,22.13,38.67,9.08
290,umm kaddadah,0.0,SD,1538177860.0,52.0,13.6,26.69,75.39,3.04
291,solok,36.0,ID,1538177862.0,89.0,-0.79,100.66,70.35,1.81
292,puerto ayora,20.0,EC,1538175600.0,73.0,-0.74,-90.35,77.0,19.46
294,vila velha,0.0,BR,1538175600.0,74.0,-3.71,-38.6,80.6,9.17
295,codajas,0.0,BR,1538177866.0,90.0,-3.84,-62.06,79.26,3.15
296,papara,0.0,BR,1538175600.0,74.0,-3.98,-38.73,80.6,9.17
297,matay,56.0,EG,1538177868.0,55.0,28.42,30.79,72.33,6.85
298,fort nelson,75.0,CA,1538175600.0,68.0,58.81,-122.69,46.4,8.05
299,makakilo city,90.0,US,1538175840.0,94.0,21.35,-158.09,87.08,9.17
301,pangkalanbuun,0.0,ID,1538177873.0,85.0,-2.68,111.62,77.19,4.72
302,goure,20.0,NE,1538177574.0,60.0,13.98,10.27,76.83,3.6
303,moree,0.0,AU,1538177875.0,47.0,-29.46,149.84,72.51,13.56
305,kamenka,92.0,RU,1538177877.0,93.0,53.19,44.05,54.24,12.66
306,razole,32.0,IN,1538177878.0,100.0,16.48,81.84,83.04,3.83
307,nortelandia,24.0,BR,1538177879.0,84.0,-14.45,-56.8,78.09,2.37
308,onega,92.0,RU,1538177881.0,100.0,63.91,38.09,44.07,18.25
310,salta,40.0,AR,1538175600.0,54.0,-24.79,-65.41,82.4,3.36
311,dzilam gonzalez,12.0,MX,1538177884.0,88.0,21.28,-88.93,80.07,3.71
312,holme,20.0,GB,1538176800.0,100.0,53.7,-2.31,46.4,2.24
313,faanui,24.0,PF,1538177716.0,100.0,-16.48,-151.75,77.19,5.61
314,camocim,0.0,BR,1538177731.0,70.0,-2.9,-40.84,78.54,16.02
315,san cristobal,40.0,EC,1538175600.0,48.0,-0.39,-78.55,64.4,17.22
316,coquimbo,20.0,CL,1538175600.0,93.0,-29.95,-71.34,55.4,6.93
317,merrill,1.0,US,1538175180.0,3.0,42.03,-121.6,82.94,3.36
318,santa rosa,90.0,AR,1538177100.0,100.0,-36.62,-64.29,62.6,9.17
319,abnub,0.0,EG,1538172000.0,47.0,27.27,31.15,77.0,12.75
320,tuatapere,92.0,NZ,1538177896.0,92.0,-46.13,167.69,52.44,19.71
321,nanortalik,0.0,GL,1538177748.0,94.0,60.14,-45.24,37.77,30.22
322,beni,64.0,CD,1538177898.0,97.0,0.49,29.47,64.5,2.48
324,sao jose da coroa grande,24.0,BR,1538177900.0,98.0,-8.9,-35.15,72.06,5.61
326,gushikawa,90.0,JP,1538177280.0,94.0,26.35,127.87,78.8,64.42
327,zhanakorgan,0.0,KZ,1538177904.0,63.0,43.91,67.25,53.61,9.75
328,miri,44.0,NG,1538177905.0,92.0,10.31,9.75,69.18,3.6
329,kununurra,0.0,AU,1538175600.0,74.0,-15.77,128.74,80.6,8.05
331,rawson,20.0,AR,1538177882.0,65.0,-43.3,-65.11,54.42,6.85
332,progreso,75.0,UY,1538175600.0,88.0,-34.68,-56.22,68.0,11.41
333,kysyl-syr,92.0,RU,1538177911.0,81.0,63.9,122.77,39.93,6.62
334,maniwaki,68.0,CA,1538177912.0,95.0,46.38,-75.98,55.14,9.42
336,donji vakuf,0.0,BA,1538177914.0,88.0,44.14,17.4,35.97,1.7
337,artyshta,48.0,RU,1538177915.0,82.0,54.12,86.29,49.56,8.52
338,nago,0.0,IT,1538175000.0,67.0,45.88,10.89,59.0,6.93
339,namibe,12.0,AO,1538177918.0,99.0,-15.19,12.15,68.55,7.4
341,ca mau,20.0,VN,1538177920.0,96.0,9.18,105.15,80.88,2.93
342,isangel,92.0,VU,1538177787.0,100.0,-19.55,169.27,71.61,18.7
343,havre-saint-pierre,90.0,CA,1538175600.0,76.0,50.23,-63.6,48.2,11.41
344,rodrigues alves,75.0,BR,1538175600.0,88.0,-7.74,-72.65,78.8,2.24
345,buala,68.0,SB,1538177924.0,88.0,-8.15,159.59,83.76,4.94
346,petropavlovsk-kamchatskiy,0.0,RU,1538175600.0,61.0,53.05,158.65,50.0,4.47
347,hobyo,88.0,SO,1538177926.0,91.0,5.35,48.53,76.83,15.12
348,libreville,75.0,GA,1538175600.0,83.0,0.39,9.45,80.6,6.93
349,la ronge,90.0,CA,1538175600.0,55.0,55.1,-105.3,37.4,10.29
350,aripuana,8.0,BR,1538177761.0,82.0,-9.17,-60.63,79.44,2.59
351,tiarei,20.0,PF,1538175600.0,58.0,-17.53,-149.33,82.4,11.41
352,souillac,0.0,FR,1538177400.0,55.0,45.6,-0.6,64.4,13.87
353,porto walter,24.0,BR,1538177933.0,65.0,-8.27,-72.74,86.37,0.92
354,gisborne,12.0,NZ,1538177934.0,85.0,-38.66,178.02,54.96,3.6
355,oranjemund,0.0,ZA,1538177935.0,93.0,-28.55,16.43,57.84,27.42
356,port hardy,20.0,CA,1538175600.0,87.0,50.7,-127.42,55.4,5.82
357,boyolangu,20.0,ID,1538177937.0,85.0,-8.09,111.9,71.52,4.5
358,sur,0.0,OM,1538177716.0,98.0,22.57,59.53,82.23,5.17
359,kenai,90.0,US,1538175360.0,71.0,60.55,-151.26,55.04,10.29
360,salinopolis,88.0,BR,1538177790.0,94.0,-0.61,-47.36,81.87,18.7
361,khash,0.0,IR,1538177942.0,42.0,28.22,61.21,43.08,2.59
362,sliven,64.0,BG,1538177943.0,88.0,42.68,26.32,44.79,2.71
363,umtata,0.0,ZA,1538175600.0,93.0,-31.59,28.78,48.2,1.12
364,tilichiki,0.0,RU,1538177916.0,94.0,60.47,166.1,40.74,3.83
365,ambon,0.0,FR,1538177400.0,77.0,47.55,-2.56,59.0,11.41
366,bowling green,1.0,US,1538176500.0,63.0,36.99,-86.44,69.98,4.7
367,naze,40.0,NG,1538172000.0,94.0,5.43,7.07,73.4,1.59
368,suixi,0.0,CN,1538177950.0,81.0,33.92,116.76,65.31,3.15
370,manokwari,0.0,ID,1538177952.0,100.0,-0.87,134.08,82.86,3.04
372,vieques,90.0,PR,1538176440.0,97.0,18.43,-65.83,80.96,12.75
373,khovu-aksy,0.0,RU,1538177955.0,80.0,51.13,93.72,28.86,1.92
374,yagodnoye,92.0,RU,1538177956.0,85.0,62.52,149.63,24.09,7.29
375,aklavik,75.0,CA,1538175600.0,74.0,68.22,-135.01,33.8,9.17
377,nioro,68.0,GM,1538177908.0,79.0,13.79,-15.05,78.99,8.41
378,rosarito,75.0,CO,1538175600.0,77.0,4.91,-75.23,82.4,2.15
379,hirara,75.0,JP,1538176980.0,94.0,24.8,125.28,80.6,57.49
380,balkanabat,0.0,TM,1538177963.0,68.0,39.51,54.36,54.6,1.92
381,bataipora,88.0,BR,1538177964.0,71.0,-22.3,-53.27,78.72,3.6
382,bud,92.0,NO,1538176800.0,75.0,62.91,6.91,44.6,11.41
383,akim swedru,80.0,GH,1538177966.0,96.0,5.89,-1.02,73.95,4.27
384,ugoofaaru,88.0,MV,1538177967.0,100.0,5.67,73.0,80.88,19.37
385,port said,20.0,EG,1538177968.0,34.0,25.34,30.55,81.15,6.51
386,limpapa,40.0,PH,1538175600.0,83.0,7.12,121.91,78.8,5.06
387,alofi,75.0,NU,1538175600.0,61.0,-19.06,-169.92,80.6,16.11
388,placerville,1.0,US,1538175600.0,23.0,38.73,-120.8,84.56,6.93
389,leirvik,92.0,NO,1538176800.0,81.0,59.78,5.5,50.0,21.92
390,ongandjera,0.0,NA,1538177974.0,24.0,-17.88,15.07,70.8,11.54
391,payson,75.0,US,1538176500.0,3.0,40.04,-111.73,84.02,5.82
392,itaituba,8.0,BR,1538177976.0,63.0,-4.26,-55.99,83.94,4.16
394,pangnirtung,90.0,CA,1538172000.0,90.0,66.15,-65.72,32.0,6.93
395,hualmay,8.0,PE,1538177752.0,84.0,-11.1,-77.61,61.71,4.16
396,moron,56.0,VE,1538177981.0,86.0,10.49,-68.2,74.31,3.04
397,craig,1.0,US,1538175360.0,4.0,40.52,-107.55,78.98,17.22
398,yakuplu,32.0,TR,1538177983.0,87.0,39.43,38.59,43.26,1.59
399,bonoua,40.0,CI,1538175600.0,94.0,5.27,-3.6,77.0,8.05
400,nhulunbuy,40.0,AU,1538175600.0,57.0,-12.18,136.78,80.6,17.22
401,arraial do cabo,64.0,BR,1538177894.0,98.0,-22.97,-42.02,72.69,6.29
402,valera,44.0,VE,1538177987.0,92.0,9.31,-70.61,78.54,2.71
403,konstantinovsk,0.0,RU,1538177988.0,88.0,47.58,41.1,44.61,2.93
404,yangjiang,0.0,CN,1538177990.0,100.0,21.85,111.96,76.29,18.81
406,geraldton,75.0,CA,1538175600.0,65.0,49.72,-86.95,41.0,2.24
407,aden,0.0,YE,1538177993.0,99.0,12.79,45.03,82.77,11.65
408,entebbe,20.0,UG,1538175600.0,88.0,0.06,32.45,69.8,4.7
409,oistins,20.0,BB,1538175600.0,78.0,13.07,-59.53,82.4,21.92
410,honiara,75.0,SB,1538175600.0,74.0,-9.43,159.96,86.0,2.24
411,tautira,20.0,PF,1538175600.0,58.0,-17.73,-149.15,82.4,11.41
413,katherine,0.0,AU,1538175600.0,48.0,-14.47,132.26,82.4,5.82
414,kawalu,20.0,ID,1538178001.0,90.0,-7.38,108.21,60.63,1.7
415,ahipara,36.0,NZ,1538177739.0,74.0,-35.17,173.16,58.56,4.94
416,bela vista,76.0,BR,1538178004.0,79.0,-22.11,-56.53,77.37,4.38
417,la cruz,76.0,MX,1538178005.0,79.0,23.92,-106.89,83.04,1.59
418,acari,0.0,BR,1538178006.0,58.0,-6.44,-36.64,75.57,11.43
419,hovd,75.0,NO,1538175000.0,75.0,63.83,10.7,44.6,23.04
420,aasiaat,88.0,GL,1538178009.0,100.0,68.71,-52.87,35.97,11.99
421,shizuishan,0.0,CN,1538178010.0,40.0,39.02,106.36,46.23,3.38
422,mount isa,0.0,AU,1538175600.0,20.0,-20.73,139.49,84.2,5.82
424,oskarshamn,0.0,SE,1538176800.0,80.0,57.26,16.44,35.6,3.36
425,quixeramobim,0.0,BR,1538178014.0,47.0,-5.2,-39.3,83.76,13.33
426,ajaccio,0.0,FR,1538177400.0,82.0,41.93,8.74,66.2,6.93
427,mount gambier,64.0,AU,1538177702.0,77.0,-37.83,140.78,53.61,4.61
428,bubaque,40.0,GW,1538175600.0,83.0,11.28,-15.83,80.6,6.93
429,suhbaatar,92.0,MN,1538178019.0,100.0,50.23,106.21,39.03,10.87
430,waingapu,0.0,ID,1538178020.0,78.0,-9.65,120.26,79.17,7.29
431,san vicente,20.0,SV,1538175000.0,78.0,13.64,-88.78,84.2,3.36
432,shyryayeve,0.0,UA,1538178023.0,88.0,47.38,30.2,45.33,2.82
433,chokurdakh,56.0,RU,1538177728.0,100.0,70.62,147.9,30.21,6.17
434,ambilobe,0.0,MG,1538178025.0,66.0,-13.19,49.05,69.9,14.45
435,narsaq,0.0,GL,1538175000.0,69.0,60.91,-46.05,37.4,17.22
436,sal rei,75.0,CV,1538175600.0,78.0,16.18,-22.92,78.8,14.99
437,guiren,40.0,TW,1538175600.0,64.0,22.97,120.29,78.8,17.22
438,caceres,44.0,CO,1538178030.0,98.0,5.53,-74.53,69.09,1.59
439,albina,0.0,GF,1538178031.0,70.0,5.5,-54.06,81.69,5.61
440,broome,0.0,GB,1538176800.0,93.0,52.47,1.45,42.8,4.7
441,lulea,0.0,SE,1538176800.0,100.0,65.58,22.15,26.6,6.17
442,san policarpo,8.0,PH,1538178034.0,92.0,12.18,125.51,83.31,8.97
443,khandyga,0.0,RU,1538177793.0,63.0,62.65,135.58,35.07,7.74
444,yeppoon,0.0,AU,1538175600.0,60.0,-23.13,150.74,75.2,5.82
446,saint anthony,1.0,US,1538175360.0,3.0,43.97,-111.68,78.08,8.05
447,bonavista,100.0,CA,1538177953.0,98.0,48.65,-53.11,51.99,14.0
448,bambanglipuro,80.0,ID,1538177932.0,95.0,-7.95,110.28,71.16,3.38
449,sucua,20.0,EC,1538178042.0,87.0,-2.46,-78.17,69.09,1.92
450,axim,92.0,GH,1538177895.0,98.0,4.87,-2.24,78.09,9.75
451,camacha,40.0,PT,1538175600.0,78.0,33.08,-16.33,73.4,14.99
452,antofagasta,75.0,CL,1538175600.0,82.0,-23.65,-70.4,59.0,17.22
453,arona,0.0,IT,1538175000.0,87.0,45.76,8.56,57.2,5.82
454,penzance,0.0,GB,1538175000.0,81.0,50.12,-5.53,46.4,10.29
455,chiusi,0.0,IT,1538175000.0,44.0,43.02,11.95,59.0,2.24
456,lagoa,0.0,PT,1538175600.0,83.0,37.14,-8.45,71.6,4.7
458,riyadh,0.0,SA,1538175600.0,12.0,24.63,46.72,80.6,3.36
459,havoysund,75.0,NO,1538176800.0,80.0,71.0,24.66,35.6,13.87
460,borgarnes,75.0,IS,1538175600.0,81.0,64.54,-21.92,42.8,23.04
461,abbeville,0.0,FR,1538177400.0,81.0,50.11,1.83,48.2,4.7
462,sambava,68.0,MG,1538178056.0,100.0,-14.27,50.17,73.05,18.14
463,aras,0.0,YE,1538178057.0,44.0,14.28,44.38,41.46,2.15
465,yatou,75.0,CM,1538175600.0,100.0,3.63,9.81,77.0,7.63
466,kathmandu,20.0,NP,1538175000.0,93.0,27.71,85.32,64.4,1.7
467,adrar,40.0,DZ,1538175600.0,47.0,27.87,-0.29,75.2,12.75
468,kavaratti,64.0,IN,1538177922.0,100.0,10.57,72.64,79.26,9.19
469,pareora,0.0,NZ,1538178064.0,77.0,-44.49,171.21,56.76,6.4
470,biltine,56.0,TD,1538178065.0,82.0,14.53,20.93,68.91,2.59
471,klaksvik,92.0,FO,1538176800.0,93.0,62.23,-6.59,48.2,13.87
472,myanaung,8.0,MM,1538178067.0,97.0,18.28,95.32,77.19,1.59
473,olga,1.0,US,1538175480.0,47.0,34.11,-118.17,93.92,14.99
474,vestmannaeyjar,92.0,IS,1538177732.0,100.0,63.44,-20.27,45.15,31.0
475,road town,40.0,VG,1538175600.0,78.0,18.42,-64.62,80.6,10.29
476,ust-kuyga,80.0,RU,1538178071.0,83.0,70.0,135.55,29.04,6.73
477,manaure,75.0,CO,1538175600.0,83.0,11.78,-72.45,84.2,9.17
478,yanam,0.0,IN,1538178074.0,89.0,16.73,82.22,77.19,3.6
479,nantucket,90.0,US,1538176500.0,93.0,41.28,-70.1,60.98,14.99
480,ilulissat,75.0,GL,1538175000.0,74.0,69.22,-51.1,33.8,10.29
481,pipri,0.0,IN,1538178077.0,88.0,24.21,83.02,71.16,2.59
482,massakory,0.0,TD,1538178078.0,80.0,13.0,15.73,76.38,2.71
484,mogadishu,76.0,SO,1538178024.0,100.0,2.04,45.34,76.83,10.2
485,bahia honda,68.0,CU,1538178081.0,82.0,22.9,-83.16,81.15,6.62
486,yerbogachen,0.0,RU,1538177753.0,84.0,61.28,108.01,32.73,2.37
487,avera,40.0,US,1538175300.0,78.0,33.19,-82.53,84.02,3.15
488,sobolevo,80.0,RU,1538177886.0,91.0,54.43,31.9,36.78,2.93
490,ponta delgada,75.0,PT,1538175600.0,88.0,37.73,-25.67,71.6,9.17
492,gold coast,0.0,AU,1538177400.0,60.0,-28.0,153.41,75.2,23.04
493,lalibela,12.0,ET,1538178090.0,82.0,12.04,39.05,41.82,2.04
494,bulgan,0.0,MN,1538178091.0,65.0,48.81,103.53,21.48,4.83
496,tres arroyos,92.0,AR,1538178008.0,97.0,-38.38,-60.28,59.91,7.96
497,morondava,0.0,MG,1538178094.0,100.0,-20.3,44.28,70.98,2.93
498,vanimo,44.0,PG,1538177706.0,100.0,-2.67,141.3,83.22,5.73
499,shimoda,90.0,JP,1538175600.0,82.0,34.7,138.93,66.2,4.7
500,tarakan,88.0,ID,1538178098.0,100.0,3.3,117.63,76.11,4.83
501,thompson,90.0,CA,1538175600.0,59.0,55.74,-97.86,33.8,10.29
502,the valley,20.0,AI,1538175600.0,78.0,18.22,-63.06,82.4,9.17
503,saint-pierre,0.0,FR,1538175600.0,81.0,48.95,4.24,53.6,18.34
504,asheville,75.0,US,1538175240.0,68.0,35.6,-82.55,73.94,9.17
505,zlobin,0.0,HR,1538177400.0,28.0,45.29,14.65,68.0,9.17
506,atambua,0.0,ID,1538178104.0,94.0,-9.11,124.89,79.26,5.95
507,cap malheureux,40.0,MU,1538175600.0,73.0,-19.98,57.61,71.6,10.29
509,batagay,20.0,RU,1538178107.0,80.0,67.65,134.64,28.14,4.16
510,mehamn,24.0,NO,1538177948.0,98.0,71.03,27.85,35.43,10.98
511,tortoli,5.0,IT,1538175300.0,63.0,39.93,9.66,62.6,8.05
512,samaipata,80.0,BO,1538178111.0,84.0,-18.18,-63.88,72.24,5.73
514,lock haven,1.0,US,1538175240.0,74.0,41.14,-77.45,62.06,3.36
515,russkaya polyana,0.0,RU,1538178114.0,77.0,53.78,73.88,43.8,11.65
516,sitka,92.0,US,1538177969.0,81.0,37.17,-99.65,59.82,17.58
517,margate,20.0,AU,1538175600.0,46.0,-43.03,147.26,50.0,23.04
518,santiago del estero,44.0,AR,1538178012.0,72.0,-27.8,-64.26,77.73,4.61
520,salgado,20.0,BR,1538175600.0,74.0,-11.03,-37.48,78.8,9.17
521,yantal,0.0,RU,1538178121.0,85.0,56.85,105.25,32.46,2.37
522,amahai,88.0,ID,1538177871.0,100.0,-3.31,129.0,79.17,9.19
523,humaita,40.0,AR,1538175600.0,54.0,-24.93,-65.37,82.4,3.36
524,sibu,75.0,MY,1538175600.0,94.0,2.29,111.83,77.0,1.12
526,afua,88.0,NG,1538178126.0,99.0,5.27,7.87,71.25,3.6
527,suntar,76.0,RU,1538177998.0,87.0,62.16,117.65,38.76,3.94
528,acajutla,40.0,SV,1538175000.0,74.0,13.59,-89.83,86.0,6.93
529,batagay-alyta,8.0,RU,1538177963.0,78.0,67.8,130.41,15.9,4.61
530,kidderminster,0.0,GB,1538176800.0,87.0,52.39,-2.25,42.8,2.24
531,marquette,90.0,US,1538175360.0,87.0,46.54,-87.4,46.04,4.7
532,deputatskiy,80.0,RU,1538177889.0,87.0,69.3,139.9,27.6,12.88
533,anadyr,75.0,RU,1538175600.0,87.0,64.73,177.51,42.8,13.42
534,half moon bay,20.0,US,1538175360.0,56.0,37.46,-122.43,73.04,16.11
535,betsiamites,1.0,CA,1538175600.0,87.0,48.94,-68.65,51.8,14.99
536,paamiut,80.0,GL,1538178137.0,96.0,61.99,-49.67,39.57,9.19
537,serenje,0.0,ZM,1538178138.0,40.0,-13.23,30.22,62.34,9.64
538,pekan,75.0,MY,1538175600.0,94.0,3.49,103.39,77.0,3.38
539,mendoza,0.0,AR,1538175600.0,64.0,-32.89,-68.84,68.0,3.36
540,gigmoto,12.0,PH,1538178142.0,100.0,13.78,124.39,82.32,10.98
541,redcliffe,8.0,GB,1538176800.0,75.0,51.45,-2.59,48.2,5.82
543,port macquarie,8.0,AU,1538175600.0,60.0,-31.43,152.91,68.0,5.82
544,moerai,92.0,PF,1538178146.0,100.0,-22.43,-151.33,71.97,10.31
545,polson,0.0,US,1538178147.0,56.0,47.69,-114.16,52.98,2.37
546,roseburg,1.0,US,1538175360.0,22.0,43.22,-123.34,86.0,2.93
547,zarubino,0.0,RU,1538178150.0,91.0,42.65,131.06,64.86,8.97
548,yemtsa,92.0,RU,1538178151.0,96.0,63.06,40.33,41.64,10.98
549,kloulklubed,90.0,PW,1538175000.0,74.0,7.04,134.26,84.2,10.29
550,xacmaz,0.0,AZ,1538178154.0,100.0,41.46,48.81,44.88,2.37
551,yenagoa,92.0,NG,1538178155.0,97.0,4.92,6.26,74.67,3.38
552,hailar,68.0,CN,1538178018.0,97.0,49.2,119.7,45.33,12.66
553,dicabisagan,12.0,PH,1538177874.0,100.0,17.08,122.42,81.24,5.06
554,upington,0.0,ZA,1538175600.0,30.0,-28.46,21.24,57.2,2.24
555,toktogul,0.0,KG,1538178159.0,85.0,41.87,72.95,32.37,2.71
556,itamaraca,75.0,BR,1538175600.0,78.0,-7.75,-34.83,78.8,11.41
557,sao joaquim da barra,0.0,BR,1538175600.0,65.0,-20.58,-47.85,77.0,9.17
558,qasigiannguit,75.0,GL,1538175000.0,74.0,68.82,-51.19,33.8,10.29
559,luganville,92.0,VU,1538178164.0,100.0,-15.51,167.18,76.83,24.52
560,kandi,44.0,BJ,1538178165.0,95.0,11.13,2.93,72.51,5.61
561,cumra,0.0,TR,1538175000.0,58.0,37.57,32.77,57.2,3.36
562,mexico,1.0,US,1538176500.0,81.0,44.56,-70.55,55.04,2.15
564,tromso,75.0,NO,1538176800.0,100.0,69.65,18.96,35.6,16.11
565,irmo,40.0,US,1538177700.0,88.0,34.09,-81.18,82.94,2.48
566,ullapool,92.0,GB,1538178171.0,100.0,57.9,-5.16,51.18,26.42
567,talnakh,8.0,RU,1538178172.0,85.0,69.49,88.39,47.76,16.46
569,cradock,0.0,ZA,1538178175.0,62.0,-32.16,25.62,38.04,3.27
570,biak,48.0,ID,1538178176.0,100.0,-0.91,122.88,76.47,3.94
571,horadiz,92.0,AZ,1538178177.0,99.0,39.45,47.33,61.26,2.59
572,raudeberg,92.0,NO,1538176800.0,87.0,61.99,5.14,48.2,23.04
573,chicama,20.0,PE,1538175600.0,88.0,-7.84,-79.15,62.6,8.05
574,college,1.0,US,1538175480.0,7.0,64.86,-147.8,54.14,13.87
575,beloha,0.0,MG,1538178181.0,60.0,-25.17,45.06,67.83,6.85
576,namatanai,0.0,PG,1538177918.0,96.0,-3.66,152.44,84.12,13.0
577,moissala,56.0,TD,1538178183.0,85.0,8.34,17.77,74.49,3.15
578,mahanoro,92.0,MG,1538178185.0,99.0,-19.9,48.8,63.78,1.81
579,san andres,64.0,PH,1538178186.0,100.0,13.32,122.68,82.86,15.57
580,vorobyevka,0.0,RU,1538178187.0,92.0,50.65,40.92,47.13,8.41
581,gualeguaychu,44.0,AR,1538178188.0,73.0,-33.01,-58.51,77.73,15.23
582,alta floresta,0.0,BR,1538178189.0,93.0,-9.87,-56.08,75.3,1.03
583,concordia,76.0,AR,1538177946.0,73.0,-31.4,-58.02,75.93,13.67
584,kazanka,0.0,UA,1538175600.0,81.0,47.83,32.83,51.8,4.47
586,aksarka,92.0,RU,1538178194.0,99.0,66.56,67.8,43.26,12.44
587,tumsar,0.0,IN,1538178195.0,83.0,21.38,79.75,71.88,1.48
588,richards bay,88.0,ZA,1538177903.0,84.0,-28.77,32.06,67.56,4.38
589,vadso,0.0,NO,1538176800.0,80.0,70.07,29.75,30.2,11.41
590,egvekinot,92.0,RU,1538177900.0,99.0,66.32,-179.17,38.31,8.52
591,prince rupert,1.0,CA,1538175600.0,77.0,54.32,-130.32,60.8,8.05
592,labuan,75.0,BN,1538177400.0,94.0,5.28,115.24,80.6,4.16
593,vestmanna,92.0,FO,1538176800.0,93.0,62.16,-7.17,48.2,13.87
594,constitucion,90.0,MX,1538174880.0,53.0,23.99,-104.67,71.6,5.82
595,lorengau,20.0,PG,1538177909.0,97.0,-2.02,147.27,84.66,9.53
596,birjand,0.0,IR,1538175600.0,27.0,32.86,59.22,51.8,6.93
597,herat,0.0,AF,1538178206.0,57.0,34.35,62.22,45.15,4.38
598,nabire,12.0,ID,1538178207.0,85.0,-3.36,135.5,77.28,1.14
600,guskhara,20.0,IN,1538178209.0,93.0,23.5,87.75,78.18,2.93
601,hendaye,12.0,FR,1538177400.0,88.0,43.37,-1.77,66.2,2.24
603,novita,92.0,CO,1538178212.0,96.0,4.96,-76.61,73.23,0.69
604,sinop,0.0,TR,1538178214.0,100.0,42.03,35.15,66.66,9.86
605,phek,12.0,IN,1538178215.0,94.0,25.7,94.46,66.21,2.37
606,basco,90.0,US,1538176500.0,71.0,40.33,-91.2,55.94,4.7
607,okato,56.0,NZ,1538178217.0,93.0,-39.19,173.88,55.23,10.87
608,komsomolskiy,92.0,RU,1538177983.0,97.0,67.55,63.78,36.42,3.15
609,vilhena,0.0,BR,1538175600.0,94.0,-12.74,-60.15,69.8,1.59
610,el mante,75.0,MX,1538174640.0,57.0,20.61,-103.43,77.0,5.82
611,santa cruz,20.0,US,1538175780.0,67.0,36.97,-122.03,71.6,6.93
612,srednekolymsk,92.0,RU,1538177992.0,75.0,67.46,153.71,31.74,6.62
613,salekhard,92.0,RU,1538178224.0,96.0,66.54,66.62,42.9,10.2
614,port hawkesbury,90.0,CA,1538175600.0,100.0,45.62,-61.36,62.6,5.82
615,teknaf,88.0,BD,1538178226.0,96.0,20.86,92.31,78.81,2.48
616,onguday,24.0,RU,1538178227.0,80.0,50.75,86.14,30.66,2.37
617,cabedelo,0.0,BR,1538175600.0,88.0,-6.97,-34.84,75.2,5.82
